is_race_on,timestamp_ms,engine_max_rpm,engine_idle_rpm,current_engine_rpm,acceleration_x,acceleration_y,acceleration_z,velocity_x,velocity_y,velocity_z,angular_velocity_x,angular_velocity_y,angular_velocity_z,yaw,pitch,roll,norm_suspension_travel_FL,norm_suspension_travel_FR,norm_suspension_travel_RL,norm_suspension_travel_RR,tire_slip_ratio_FL,tire_slip_ratio_FR,tire_slip_ratio_RL,tire_slip_ratio_RR,wheel_rotation_speed_FL,wheel_rotation_speed_FR,wheel_rotation_speed_RL,wheel_rotation_speed_RR,wheel_on_rumble_strip_FL,wheel_on_rumble_strip_FR,wheel_on_rumble_strip_RL,wheel_on_rumble_strip_RR,wheel_in_puddle_FL,wheel_in_puddle_FR,wheel_in_puddle_RL,wheel_in_puddle_RR,surface_rumble_FL,surface_rumble_FR,surface_rumble_RL,surface_rumble_RR,tire_slip_angle_FL,tire_slip_angle_FR,tire_slip_angle_RL,tire_slip_angle_RR,tire_combined_slip_FL,tire_combined_slip_FR,tire_combined_slip_RL,tire_combined_slip_RR,suspension_travel_meters_FL,suspension_travel_meters_FR,suspension_travel_meters_RL,suspension_travel_meters_RR,car_ordinal,car_class,car_performance_index,drivetrain_type,num_cylinders,position_x,position_y,position_z,speed,power,torque,tire_temp_FL,tire_temp_FR,tire_temp_RL,tire_temp_RR,boost,fuel,dist_traveled,best_lap_time,last_lap_time,cur_lap_time,cur_race_time,lap_no,race_pos,accel,brake,clutch,handbrake,gear,steer,norm_driving_line,norm_ai_brake_diff
1,856375,9999.9951171875,849.6089477539062,5498.11572265625,-0.8386939764022827,-0.6067440509796143,-2.5527238845825195,-0.010382652282714844,0.011873006820678711,31.29751968383789,0.009765388444066048,-0.00038999057142063975,-0.030314909294247627,-2.69429349899292,0.029223307967185974,0.0366518571972847,0.5305191874504089,0.44186362624168396,0.3696489632129669,0.3548397719860077,-0.019329335540533066,-0.022899964824318886,-0.03696902096271515,-0.03404385223984718,94.51678466796875,94.49267578125,87.70626068115234,87.72850799560547,0.0,0.0,0.0,0.0,0.0,0.0,0.0,0.0,0.0,0.0,0.0,0.0,0.008111500181257725,0.006437103729695082,0.006580399349331856,0.005477654282003641,0.020962338894605637,0.023787491023540497,0.037550102919340134,0.0344817116856575,0.006038747727870941,-0.000374404713511467,-0.0036040768027305603,-0.004628490656614304,2616,4,884,2,12,-5537.708984375,186.09597778320312,-398.6257629394531,31.297523498535156,-111268.578125,-193.23191833496094,175.38905334472656,172.78846740722656,176.6998291015625,176.6998291015625,-14.699999809265137,1.0,0.0,0.0,0.0,0.0,337.7685241699219,0,0,0,0,0,0,3,0,0,0
1,856406,9999.9951171875,849.6089477539062,5486.1630859375,-0.5537049770355225,-0.3669208884239197,-2.5135605335235596,-0.008563995361328125,0.007353305816650391,31.220035552978516,-0.008583754301071167,-0.0002861572429537773,-0.03827374428510666,-2.694305896759033,0.029214909300208092,0.0353500060737133,0.5648205876350403,0.4723582863807678,0.4122282862663269,0.3577197790145874,-0.01960582286119461,-0.02102339081466198,-0.033452678471803665,-0.03424100577831268,94.29637908935547,94.28723907470703,87.53262329101562,87.52761840820312,0.0,0.0,0.0,0.0,0.0,0.0,0.0,0.0,0.0,0.0,0.0,0.0,0.008379358798265457,0.006181470118463039,0.00646869046613574,0.006047110538929701,0.02132139727473259,0.02191331796348095,0.03407236188650131,0.03477087989449501,0.008520036935806274,0.0018315128982067108,-0.0006586834788322449,-0.004429269582033157,2616,4,884,2,12,-5538.224609375,186.06138610839844,-399.70196533203125,31.220033645629883,-110747.640625,-192.7427215576172,175.35179138183594,172.75157165527344,176.66424560546875,176.66424560546875,-14.699999809265137,1.0,0.0,0.0,0.0,0.0,337.8067321777344,0,0,0,0,0,0,3,0,0,0
1,856468,9999.9951171875,849.6089477539062,5474.13134765625,0.6973577737808228,-0.01356659084558487,-1.791451096534729,-0.006514549255371094,0.0034886598587036133,31.142959594726562,-0.020502984523773193,-0.0002890684991143644,-0.03680020943284035,-2.6943368911743164,0.028628546744585037,0.033909399062395096,0.5876358151435852,0.48075053095817566,0.449635773897171,0.40959644317626953,-0.01903649792075157,-0.02066447027027607,-0.03186162933707237,-0.03074578568339348,94.07796478271484,94.06878662109375,87.338623046875,87.34843444824219,0.0,0.0,0.0,0.0,0.0,0.0,0.0,0.0,0.0,0.0,0.0,0.0,0.007599548436701298,0.005026603117585182,0.00532780634239316,0.005538317374885082,0.02049735188484192,0.021267041563987732,0.032304007560014725,0.031240619719028473,0.01017044484615326,0.002438591793179512,0.0019289515912532806,-0.0008407384157180786,2616,4,884,2,12,-5538.736328125,186.02728271484375,-400.7698974609375,31.14295768737793,-110218.515625,-192.24278259277344,175.3145751953125,172.7156982421875,176.6299591064453,176.6299591064453,-14.699999809265137,1.0,0.0,0.0,0.0,0.0,337.8447265625,0,0,0,0,0,0,3,0,0,0
1,856484,9999.9951171875,849.6089477539062,5460.88427734375,0.5107976794242859,0.36916983127593994,-1.8472487926483154,-0.005780220031738281,0.003409266471862793,31.063085556030273,-0.025942958891391754,-0.00031176587799564004,-0.02934635989367962,-2.694380283355713,0.02767861820757389,0.03260090947151184,0.5797419548034668,0.4870142936706543,0.48402881622314453,0.45182764530181885,-0.019233137369155884,-0.020776117220520973,-0.030528081580996513,-0.028812486678361893,93.84404754638672,93.8332290649414,87.1282958984375,87.14257049560547,0.0,0.0,0.0,0.0,0.0,0.0,0.0,0.0,0.0,0.0,0.0,0.0,0.0067067742347717285,0.003860829398036003,0.004069967195391655,0.004742301069200039,0.02036895602941513,0.02113180235028267,0.030798189342021942,0.029200151562690735,0.009599417448043823,0.0028916988521814346,0.0043080635368824005,0.0020805709064006805,2616,4,884,2,12,-5539.26708984375,185.99282836914062,-401.8772277832031,31.063087463378906,-109616.859375,-191.65914916992188,175.27606201171875,172.67861938476562,176.5948486328125,176.5948486328125,-14.699999809265137,1.0,0.0,0.0,0.0,0.0,337.88421630859375,0,0,0,0,0,0,3,0,0,0
1,856515,9999.9951171875,849.6089477539062,5447.52392578125,0.017144083976745605,0.5793321132659912,-2.099426031112671,-0.005951881408691406,0.00174713134765625,30.98654556274414,-0.02631746046245098,-0.0003375597589183599,-0.027668874710798264,-2.694425106048584,0.0266695786267519,0.031542398035526276,0.5684799551963806,0.49024659395217896,0.509128212928772,0.45422035455703735,-0.019372599199414253,-0.02121138945221901,-0.029536627233028412,-0.029039278626441956,93.6089096069336,93.60041809082031,86.92137145996094,86.92719268798828,0.0,0.0,0.0,0.0,0.0,0.0,0.0,0.0,0.0,0.0,0.0,0.0,0.006541824899613857,0.004051820375025272,0.0037284528370946646,0.004643761552870274,0.020447323098778725,0.02159491367638111,0.029771022498607635,0.029408235102891922,0.008784748613834381,0.0031255166977643967,0.006044298410415649,0.002246089279651642,2616,4,884,2,12,-5539.7763671875,185.9609375,-402.93988037109375,30.986547470092773,-109056.6640625,-191.14247131347656,175.2388916015625,172.64291381835938,176.5615234375,176.5615234375,-14.699999809265137,1.0,0.0,0.0,0.0,0.0,337.9222106933594,0,0,0,0,0,0,3,0,0,0
1,856546,9999.9951171875,849.6089477539062,5433.93603515625,0.4213360846042633,0.6621934771537781,-1.9573949575424194,-0.005864143371582031,-0.0008815526962280273,30.911117553710938,-0.020454633980989456,-0.0003453358949627727,-0.027400463819503784,-2.6944656372070312,0.025779899209737778,0.030493514612317085,0.5529134273529053,0.48939982056617737,0.5094143748283386,0.4551514983177185,-0.020192600786685944,-0.022074440494179726,-0.029459521174430847,-0.028584718704223633,93.37191009521484,93.3609848022461,86.70469665527344,86.71458435058594,0.0,0.0,0.0,0.0,0.0,0.0,0.0,0.0,0.0,0.0,0.0,0.0,0.006361470092087984,0.004628049675375223,0.003712048288434744,0.004512590356171131,0.021170957013964653,0.022554373368620872,0.02969246916472912,0.028938721865415573,0.007658697664737701,0.003064259886741638,0.0060640908777713776,0.00231049582362175,2616,4,884,2,12,-5540.279296875,185.9304962158203,-403.9888000488281,30.911113739013672,-108460.421875,-190.57444763183594,175.20162963867188,172.6072540283203,176.5288543701172,176.5288543701172,-14.699999809265137,1.0,0.0,0.0,0.0,0.0,337.9598083496094,0,0,0,0,0,0,3,0,0,0
1,856578,9999.9951171875,849.6089477539062,5439.31494140625,0.2949899435043335,0.5867448449134827,-1.460368037223816,-0.00585174560546875,-0.002260744571685791,30.872196197509766,-0.011099815368652344,-0.0003455459082033485,-0.026014385744929314,-2.6944963932037354,0.025190284475684166,0.02948499098420143,0.5374153852462769,0.483503133058548,0.5002866983413696,0.45791396498680115,-0.003264262340962887,-0.0037991562858223915,-0.005051507614552975,-0.004844196140766144,93.39501190185547,93.3947525024414,86.82331085205078,86.82662200927734,0.0,0.0,0.0,0.0,0.0,0.0,0.0,0.0,0.0,0.0,0.0,0.0,0.005919874645769596,0.005114180035889149,0.003724608803167939,0.004350867122411728,0.006760201416909695,0.006370904855430126,0.006276180502027273,0.0065112425945699215,0.0065376050770282745,0.002637706696987152,0.005432691425085068,0.0025015883147716522,2616,4,884,2,12,-5540.78515625,185.90066528320312,-405.0440673828125,30.87220001220703,-13570.3310546875,-23.82493019104004,175.16278076171875,172.56982421875,176.49435424804688,176.49435424804688,-11.914349555969238,1.0,0.0,0.0,0.0,0.0,337.9977111816406,0,0,49,0,0,0,3,0,0,0
1,856609,9999.9951171875,849.6089477539062,5459.51513671875,0.5912532806396484,0.3025329113006592,-0.35136520862579346,-0.00560760498046875,-0.004751980304718018,30.88878059387207,-0.0011681867763400078,-0.00039648020174354315,-0.028423216193914413,-2.694516658782959,0.024974636733531952,0.028465839102864265,0.5171931982040405,0.4388430416584015,0.4881933331489563,0.4596041142940521,0.021624797955155373,0.0250791534781456,0.029692864045500755,0.028454314917325974,93.65145874023438,93.68041229248047,87.1865234375,87.17816925048828,0.0,0.0,0.0,0.0,0.0,0.0,0.0,0.0,0.0,0.0,0.0,0.0,0.005830980837345123,0.0055951401591300964,0.004007697105407715,0.004502158146351576,0.022397147491574287,0.025695709511637688,0.02996210753917694,0.028808288276195526,0.005074772983789444,-0.0005929078906774521,0.00459614023566246,0.002618502825498581,2616,4,884,2,12,-5541.2919921875,185.87115478515625,-406.101806640625,30.888778686523438,81753.984375,143.02398681640625,175.12203979492188,172.53016662597656,176.457275390625,176.457275390625,-9.121349334716797,1.0,0.0,0.0,0.0,0.0,338.03570556640625,0,0,179,0,0,0,3,0,0,0
1,856656,9999.9951171875,849.6089477539062,5492.634765625,-0.23080109059810638,0.030765177682042122,0.5118223428726196,-0.0050067901611328125,-0.013745307922363281,30.96364974975586,0.009167753159999847,-0.0005714388098567724,-0.027624206617474556,-2.694530487060547,0.025140268728137016,0.027372196316719055,0.45833685994148254,0.3840893507003784,0.47671377658843994,0.45931383967399597,0.054495032876729965,0.06018182262778282,0.06908157467842102,0.06652606278657913,94.14008331298828,94.18637084960938,87.75193786621094,87.73587799072266,0.0,0.0,0.0,0.0,0.0,0.0,0.0,0.0,0.0,0.0,0.0,0.0,0.005555975716561079,0.00530787231400609,0.0038287288043648005,0.004297968000173569,0.05477752536535263,0.06041543930768967,0.06918759644031525,0.06666475534439087,0.0008172336965799332,-0.004553673788905144,0.003802049905061722,0.0025984272360801697,2616,4,884,2,12,-5541.8037109375,185.84115600585938,-407.1695251464844,30.963653564453125,178984.5625,311.27618408203125,175.08377075195312,172.4931640625,176.4254150390625,176.4254150390625,-6.306300163269043,1.0,0.0,0.0,0.0,0.0,338.0740051269531,0,0,255,0,0,0,3,0,0,0
1,856687,9999.9951171875,849.6089477539062,5529.84814453125,-0.27372124791145325,-0.171983003616333,1.4514344930648804,-0.0046558380126953125,-0.016533970832824707,31.074249267578125,0.010905244387686253,-0.0006792408530600369,-0.025339914485812187,-2.6945416927337646,0.025494426488876343,0.026514539495110512,0.4667363464832306,0.3997466266155243,0.46936821937561035,0.4427374303340912,0.081026092171669,0.08545428514480591,0.10387609153985977,0.10335516184568405,94.69281768798828,94.73037719726562,88.3774642944336,88.38194274902344,0.0,0.0,0.0,0.0,0.0,0.0,0.0,0.0,0.0,0.0,0.0,0.0,0.0049437363632023335,0.004851554986089468,0.00348588521592319,0.0039007081650197506,0.0811767727136612,0.08559189736843109,0.10393456369638443,0.10342874377965927,0.0014248359948396683,-0.0034210607409477234,0.003293931484222412,0.0014517642557621002,2616,4,884,2,12,-5542.24169921875,185.81495666503906,-408.0839538574219,31.07425308227539,263498.6875,455.20208740234375,175.05438232421875,172.46566772460938,176.4039306640625,176.4039306640625,-3.9028501510620117,1.0,0.0,0.0,0.0,0.0,338.1067199707031,0,0,255,0,0,0,3,0,0,0
1,856718,9999.9951171875,849.6089477539062,5580.07861328125,-0.034781694412231445,-0.311733603477478,2.8080387115478516,-0.004540443420410156,-0.027223169803619385,31.23699951171875,0.004636677913367748,-0.0007074518362060189,-0.023214465007185936,-2.694558620452881,0.02577819488942623,0.025661712512373924,0.4783903658390045,0.42722633481025696,0.43572014570236206,0.3978769779205322,0.11314190179109573,0.11041032522916794,0.14339765906333923,0.14767545461654663,95.47107696533203,95.45394897460938,89.21505737304688,89.25077056884766,0.0,0.0,0.0,0.0,0.0,0.0,0.0,0.0,0.0,0.0,0.0,0.0,0.00429200753569603,0.004899431020021439,0.00323665258474648,0.0036313096061348915,0.11322328448295593,0.11051897704601288,0.14343418180942535,0.1477200835943222,0.0022678598761558533,-0.0014332365244626999,0.0009663477540016174,-0.001651424914598465,2616,4,884,2,12,-5542.70751953125,185.78656005859375,-409.0557861328125,31.237014770507812,355060.5625,607.9507446289062,175.02706909179688,172.4409637451172,176.38739013671875,176.38739013671875,-1.359750747680664,1.0,0.0,0.0,0.0,0.0,338.1413269042969,0,0,255,0,0,0,3,0,0,0
1,856750,9999.9951171875,849.6089477539062,5628.6748046875,-0.1755962371826172,-0.49621760845184326,4.031750202178955,0.00112152099609375,-0.0534435510635376,31.443252563476562,-0.004191499203443527,0.001979269552975893,-0.019608059898018837,-2.6945254802703857,0.02575119026005268,0.02495613321661949,0.48070794343948364,0.4323161244392395,0.42804354429244995,0.38914692401885986,0.13302314281463623,0.13718241453170776,0.1628875881433487,0.16803021728992462,96.27288055419922,96.30752563476562,89.99897003173828,90.02450561523438,0.0,0.0,0.0,0.0,0.0,0.0,0.0,0.0,0.0,0.0,0.0,0.0,0.012104871682822704,0.013686062768101692,0.0030148427467793226,0.003614399116486311,0.1335727721452713,0.137863427400589,0.16291548311710358,0.16806909441947937,0.002435510978102684,-0.0010650530457496643,0.0004353262484073639,-0.0022553205490112305,2616,4,884,2,12,-5543.181640625,185.75685119628906,-410.0447082519531,31.443294525146484,406426.875,689.8681640625,175.00343322753906,172.42010498046875,176.3773956298828,176.3773956298828,0.0,1.0,0.0,0.0,0.0,0.0,338.17633056640625,0,0,255,0,0,0,3,2,0,0
1,856796,9999.9951171875,849.6089477539062,5665.31884765625,0.28592753410339355,-0.5170658826828003,4.978592872619629,0.020801544189453125,-0.07612335681915283,31.659221649169922,-0.0021772156469523907,0.00995543971657753,-0.017366962507367134,-2.694340229034424,0.025603357702493668,0.024290017783641815,0.4564827084541321,0.39942601323127747,0.45854461193084717,0.42932334542274475,0.1303933560848236,0.1564643830060959,0.1561208963394165,0.15596140921115875,96.9281997680664,97.08007049560547,90.5821304321289,90.53304290771484,0.0,0.0,0.0,0.0,0.0,0.0,0.0,0.0,0.0,0.0,0.0,0.0,0.06031417101621628,0.06392114609479904,0.00556164188310504,0.006777696777135134,0.143667072057724,0.16901779174804688,0.15621992945671082,0.15610860288143158,0.0006831064820289612,-0.003444252535700798,0.0025452114641666412,0.0005238540470600128,2616,4,884,2,12,-5543.66357421875,185.72592163085938,-411.0486755371094,31.659317016601562,409026.09375,689.7864990234375,174.98207092285156,172.40086364746094,176.37062072753906,176.37062072753906,0.0,1.0,0.0,0.0,0.0,0.0,338.2116394042969,0,0,255,0,0,0,3,9,0,0
1,856828,9999.9951171875,849.6089477539062,5701.16259765625,0.9762618541717529,-0.4595060348510742,5.635078430175781,0.05549430847167969,-0.08566796779632568,31.86585235595703,0.004702048376202583,0.02728372998535633,-0.009997219778597355,-2.693732976913452,0.025641722604632378,0.02383272908627987,0.410981684923172,0.3610590696334839,0.4833293557167053,0.4672795534133911,0.12435239553451538,0.16629356145858765,0.15228722989559174,0.15358562767505646,97.55457305908203,97.72673034667969,91.1781234741211,91.06195068359375,0.0,0.0,0.0,0.0,0.0,0.0,0.0,0.0,0.0,0.0,0.0,0.0,0.12306343764066696,0.1301482617855072,0.009470812045037746,0.011265461333096027,0.17495179176330566,0.21116846799850464,0.15258143842220306,0.1539982408285141,-0.002608340233564377,-0.006219634786248207,0.004259683191776276,0.0031494498252868652,2616,4,884,2,12,-5544.130859375,185.69558715820312,-412.0186767578125,31.866012573242188,411581.34375,689.706298828125,174.9637908935547,172.385009765625,176.36398315429688,176.36398315429688,0.0,1.0,0.0,0.0,0.0,0.0,338.24554443359375,0,0,255,0,0,0,3,21,0,0
1,856859,9999.9951171875,849.6089477539062,5740.9208984375,1.4040852785110474,-0.385217547416687,5.711515426635742,0.08611774444580078,-0.09075760841369629,32.08052062988281,0.007040312979370356,0.05262233316898346,-0.013688591308891773,-2.6922788619995117,0.025846393778920174,0.023486517369747162,0.3758428990840912,0.327739953994751,0.48721104860305786,0.45022866129875183,0.1208619773387909,0.16093747317790985,0.151342511177063,0.16684377193450928,98.25373077392578,98.2695541381836,91.84388732910156,91.72237396240234,0.0,0.0,0.0,0.0,0.0,0.0,0.0,0.0,0.0,0.0,0.0,0.0,0.12871283292770386,0.13508915901184082,0.012436124496161938,0.014752096496522427,0.1765633374452591,0.21011888980865479,0.15185260772705078,0.16749468445777893,-0.00515020452439785,-0.008629869669675827,0.004528190940618515,0.001969963312149048,2616,4,884,2,12,-5544.62548828125,185.66329956054688,-413.0401306152344,32.08076477050781,414337.9375,689.5628051757812,174.95059204101562,172.37338256835938,176.35690307617188,176.35690307617188,0.0,1.0,0.0,0.0,0.0,0.0,338.2810363769531,0,0,255,0,0,0,3,25,0,0
1,856890,9999.9951171875,849.6089477539062,5779.57861328125,0.47336840629577637,-0.4030889868736267,5.715743064880371,0.09686756134033203,-0.09892606735229492,32.29746627807617,0.0005002305842936039,0.07836873084306717,-0.020008079707622528,-2.689894199371338,0.025942526757717133,0.022952385246753693,0.3989533483982086,0.30891498923301697,0.4532149136066437,0.4194072484970093,0.11053211241960526,0.1566796451807022,0.1529008150100708,0.16940884292125702,98.91504669189453,98.84696960449219,92.54000854492188,92.30130004882812,0.0,0.0,0.0,0.0,0.0,0.0,0.0,0.0,0.0,0.0,0.0,0.0,0.1294308453798294,0.13665343821048737,0.02097800374031067,0.023171676322817802,0.17020484805107117,0.20790062844753265,0.1543331891298294,0.17098620533943176,-0.0034784432500600815,-0.009991627186536789,0.0021765343844890594,-0.00016208365559577942,2616,4,884,2,12,-5545.1298828125,185.63009643554688,-414.07586669921875,32.29776382446289,417076.03125,689.41796875,174.9381103515625,172.3622283935547,176.34933471679688,176.34933471679688,0.0,1.0,0.0,0.0,0.0,0.0,338.31683349609375,0,0,255,0,0,0,3,27,0,0
1,856937,9999.9951171875,849.6089477539062,5816.68310546875,3.6682024002075195,-0.19922003149986267,7.2384419441223145,0.09015655517578125,-0.10641598701477051,32.513309478759766,-0.012489691376686096,0.10160154104232788,-0.028791436925530434,-2.686652898788452,0.025649793446063995,0.022141631692647934,0.45985081791877747,0.32299357652664185,0.41991063952445984,0.39349737763404846,0.10101015120744705,0.15274982154369354,0.15194600820541382,0.1632123738527298,99.58455657958984,99.42514038085938,93.21277618408203,92.82530212402344,0.0,0.0,0.0,0.0,0.0,0.0,0.0,0.0,0.0,0.0,0.0,0.0,0.12355806678533554,0.13158613443374634,0.032502252608537674,0.0341697596013546,0.15959212183952332,0.20161204040050507,0.15538334846496582,0.16675086319446564,0.0009267479181289673,-0.008973212912678719,-0.0001272633671760559,-0.0019543804228305817,2616,4,884,2,12,-5545.63818359375,185.59671020507812,-415.1112976074219,32.513607025146484,419679.59375,689.2581787109375,174.9268798828125,172.350830078125,176.34185791015625,176.34185791015625,0.0,1.0,0.0,0.0,0.0,0.0,338.3524475097656,0,0,255,0,0,0,3,28,0,0
1,856968,9999.9951171875,849.6089477539062,5852.39697265625,1.3416483402252197,0.07028976827859879,5.867804050445557,0.0405731201171875,-0.11441457271575928,32.7313117980957,-0.028197526931762695,0.10652272403240204,-0.03621389716863632,-2.6828088760375977,0.024813292548060417,0.02109895832836628,0.516406238079071,0.385055273771286,0.42004725337028503,0.38032859563827515,0.09996447712182999,0.12920667231082916,0.14573751389980316,0.1561327576637268,100.27867889404297,99.91046142578125,93.80963134765625,93.39026641845703,0.0,0.0,0.0,0.0,0.0,0.0,0.0,0.0,0.0,0.0,0.0,0.0,0.0036782664246857166,0.003645021468400955,0.032494086772203445,0.033964551985263824,0.10003212094306946,0.12925808131694794,0.14931607246398926,0.15978431701660156,0.0050178468227386475,-0.004483800381422043,-0.00011781230568885803,-0.002865321934223175,2616,4,884,2,12,-5546.15576171875,185.5633087158203,-416.15802001953125,32.73153305053711,422133.84375,689.0744018554688,174.91354370117188,172.33778381347656,176.3345947265625,176.3345947265625,0.0,1.0,0.0,0.0,0.0,0.0,338.38824462890625,0,0,255,0,0,0,3,5,0,0
1,857000,9999.9951171875,849.6089477539062,5889.7470703125,1.7927558422088623,0.43387484550476074,6.6350884437561035,-0.04462432861328125,-0.12680304050445557,32.9475212097168,-0.0336446538567543,0.08034901320934296,-0.045271553099155426,-2.6795225143432617,0.023578481748700142,0.01965182088315487,0.5375508069992065,0.40639734268188477,0.4764361083507538,0.3852323889732361,0.11569833010435104,0.12570567429065704,0.13555727899074554,0.15045171976089478,100.99649810791016,100.630615234375,94.2883529663086,94.03236389160156,0.0,0.0,0.0,0.0,0.0,0.0,0.0,0.0,0.0,0.0,0.0,0.0,-0.023432886227965355,-0.022024817764759064,0.04085162281990051,0.0432858020067215,0.11804746091365814,0.12762056291103363,0.1415790617465973,0.15655472874641418,0.006547398865222931,-0.002939961850643158,0.0037828460335731506,-0.00252610445022583,2616,4,884,2,12,-5546.67626953125,185.5306854248047,-417.20819091796875,32.94779586791992,424699.5,688.882080078125,174.89218139648438,172.31903076171875,176.32821655273438,176.32821655273438,0.0,1.0,0.0,0.0,0.0,0.0,338.4239501953125,0,0,255,0,0,0,3,0,0,0
1,857046,9999.9951171875,849.6089477539062,5927.51611328125,2.4804391860961914,0.5519715547561646,6.911141395568848,-0.0746908187866211,-0.13695567846298218,33.16314697265625,-0.016784660518169403,0.05745840072631836,-0.03583073616027832,-2.677126407623291,0.022587595507502556,0.018239500001072884,0.5046080350875854,0.4022676944732666,0.5351195931434631,0.45691511034965515,0.1352953165769577,0.13967855274677277,0.12985609471797943,0.1416475623846054,101.72904968261719,101.45507049560547,94.79270935058594,94.61394500732422,0.0,0.0,0.0,0.0,0.0,0.0,0.0,0.0,0.0,0.0,0.0,0.0,-0.0037009066436439753,0.00012506393250077963,0.039921004325151443,0.04281092807650566,0.135345920920372,0.13967861235141754,0.13585393130779266,0.14797569811344147,0.00416439026594162,-0.0032386910170316696,0.007842235267162323,0.0024324916303157806,2616,4,884,2,12,-5547.2021484375,185.49874877929688,-418.2646484375,33.163509368896484,427279.84375,688.650634765625,174.8692169189453,172.299072265625,176.32347106933594,176.32347106933594,0.0,1.0,0.0,0.0,0.0,0.0,338.45965576171875,0,0,255,0,0,0,3,0,0,0
1,857078,9999.9951171875,849.6089477539062,5967.17529296875,0.8952562808990479,0.3735911548137665,5.49653959274292,-0.07781791687011719,-0.12819957733154297,33.37659454345703,0.014004361815750599,0.039688561111688614,-0.026030544191598892,-2.6754424571990967,0.022544749081134796,0.01721733808517456,0.46345585584640503,0.38910210132598877,0.581142008304596,0.4946613609790802,0.14633400738239288,0.1540406048297882,0.13260170817375183,0.14506502449512482,102.39105987548828,102.23673248291016,95.36018371582031,95.27490997314453,0.0,0.0,0.0,0.0,0.0,0.0,0.0,0.0,0.0,0.0,0.0,0.0,0.005279091186821461,0.010594544932246208,0.03445853665471077,0.037612445652484894,0.14642919600009918,0.15440450608730316,0.13700586557388306,0.14986179769039154,0.0011875294148921967,-0.004191063344478607,0.011025801301002502,0.0050435662269592285,2616,4,884,2,12,-5547.72998046875,185.46742248535156,-419.3211975097656,33.37693405151367,429933.15625,688.3921508789062,174.84622192382812,172.27883911132812,176.31918334960938,176.31918334960938,0.0,1.0,0.0,0.0,0.0,0.0,338.4951477050781,0,0,255,0,0,0,3,0,0,0
1,857109,9999.9951171875,849.6089477539062,6008.75244140625,1.3515613079071045,0.05484025925397873,5.845312595367432,-0.07227325439453125,-0.11395823955535889,33.58966827392578,0.03150055557489395,0.02740192785859108,-0.022755054756999016,-2.6742682456970215,0.02343297377228737,0.016379253938794136,0.4491705894470215,0.38477781414985657,0.5581531524658203,0.48648250102996826,0.13595500588417053,0.14701172709465027,0.15118177235126495,0.16042912006378174,102.89364624023438,102.83580017089844,96.08419036865234,96.028564453125,0.0,0.0,0.0,0.0,0.0,0.0,0.0,0.0,0.0,0.0,0.0,0.0,0.009806574322283268,0.014773333445191383,0.029517360031604767,0.03230256214737892,0.1363082230091095,0.14775216579437256,0.15403637290000916,0.16364888846874237,0.00015416555106639862,-0.004503872245550156,0.009435560554265976,0.004477795213460922,2616,4,884,2,12,-5548.26220703125,185.435791015625,-420.38372802734375,33.589935302734375,432754.59375,688.108642578125,174.82363891601562,172.2591552734375,176.313232421875,176.313232421875,0.0,1.0,0.0,0.0,0.0,0.0,338.5306396484375,0,0,255,0,0,0,3,0,0,0
1,857140,9999.9951171875,849.6089477539062,6049.177734375,1.154759168624878,-0.27363407611846924,5.853721618652344,-0.06358528137207031,-0.10309886932373047,33.80362319946289,0.023066679015755653,0.019420668482780457,-0.018356256186962128,-2.6734418869018555,0.024449842050671577,0.015677353367209435,0.4647991359233856,0.41583094000816345,0.5208867192268372,0.4700450599193573,0.11861805617809296,0.12833958864212036,0.16614800691604614,0.17163507640361786,103.39346313476562,103.36975860595703,96.80682373046875,96.75989532470703,0.0,0.0,0.0,0.0,0.0,0.0,0.0,0.0,0.0,0.0,0.0,0.0,0.0112150888890028,0.014640673995018005,0.024440720677375793,0.027121437713503838,0.11914705485105515,0.12917198240756989,0.1679360270500183,0.17376470565795898,0.0012847017496824265,-0.0022575557231903076,0.006857682019472122,0.003340747207403183,2616,4,884,2,12,-5548.7998046875,185.40321350097656,-421.4523620605469,33.80384063720703,435463.625,687.7826538085938,174.80140686035156,172.23983764648438,176.3057861328125,176.3057861328125,0.0,1.0,0.0,0.0,0.0,0.0,338.5661315917969,0,0,255,0,0,0,3,0,0,0
1,857171,9999.9951171875,849.6089477539062,6087.6142578125,0.8167159557342529,-0.3947221040725708,5.818695068359375,-0.05336189270019531,-0.10846215486526489,34.01700210571289,-0.000586390495300293,0.014067599549889565,-0.022748826071619987,-2.6728568077087402,0.02481810748577118,0.0150082316249609,0.4916953146457672,0.408041775226593,0.5000009536743164,0.4531538486480713,0.10754043608903885,0.12845700979232788,0.16782812774181366,0.1701878011226654,103.97196960449219,104.0665054321289,97.4294662475586,97.38491821289062,0.0,0.0,0.0,0.0,0.0,0.0,0.0,0.0,0.0,0.0,0.0,0.0,0.011562839150428772,0.013617247343063354,0.019931603223085403,0.022780979052186012,0.10816027224063873,0.12917675077915192,0.1690075397491455,0.17170573770999908,0.0032303128391504288,-0.002821005880832672,0.005412925034761429,0.0021723099052906036,2616,4,884,2,12,-5549.33837890625,185.36988830566406,-422.5211486816406,34.017215728759766,438061.78125,687.4696655273438,174.7796173095703,172.22019958496094,176.29791259765625,176.29791259765625,0.0,1.0,0.0,0.0,0.0,0.0,338.6014404296875,0,0,255,0,0,0,3,0,0,0
1,857218,9999.9951171875,849.6089477539062,6120.5185546875,0.9240808486938477,-0.21303173899650574,5.997546195983887,-0.04091358184814453,-0.11676138639450073,34.23203659057617,-0.01699906587600708,0.009533090516924858,-0.023709427565336227,-2.672455310821533,0.024434775114059448,0.014162285253405571,0.48157331347465515,0.4012659192085266,0.5128777027130127,0.4871344566345215,0.10797180980443954,0.1271297186613083,0.15488839149475098,0.14774715900421143,104.64339447021484,104.74457550048828,97.9321060180664,97.83155822753906,0.0,0.0,0.0,0.0,0.0,0.0,0.0,0.0,0.0,0.0,0.0,0.0,0.01045360416173935,0.011574248783290386,0.014840004965662956,0.017559805884957314,0.1084766760468483,0.1276555061340332,0.15559768676757812,0.1487869918346405,0.002498108893632889,-0.0033111572265625,0.006303668022155762,0.004522897303104401,2616,4,884,2,12,-5549.8798828125,185.3362579345703,-423.5932312011719,34.23225784301758,440261.53125,687.177001953125,174.75820922851562,172.20062255859375,176.29103088378906,176.29103088378906,0.0,1.0,0.0,0.0,0.0,0.0,338.6366271972656,0,0,255,0,0,0,3,0,0,0
1,857250,9999.9951171875,849.6089477539062,6155.98486328125,0.645226001739502,0.11037833988666534,5.937760353088379,-0.029433250427246094,-0.12046515941619873,34.44495391845703,-0.019837358966469765,0.006038188468664885,-0.025557581335306168,-2.672198534011841,0.023745670914649963,0.01332760602235794,0.4601123034954071,0.39509764313697815,0.5350520014762878,0.4859080910682678,0.11392301321029663,0.12559834122657776,0.1411142349243164,0.14345143735408783,105.34115600585938,105.39614868164062,98.41744995117188,98.41791534423828,0.0,0.0,0.0,0.0,0.0,0.0,0.0,0.0,0.0,0.0,0.0,0.0,0.008645428344607353,0.009640426374971867,0.010502188466489315,0.013350656256079674,0.11425058543682098,0.12596778571605682,0.14150451123714447,0.14407135546207428,0.0009456649422645569,-0.0037573575973510742,0.007837556302547455,0.004438064992427826,2616,4,884,2,12,-5550.42529296875,185.30294799804688,-424.6716613769531,34.44517517089844,442584.875,686.8428955078125,174.7364044189453,172.180908203125,176.28472900390625,176.28472900390625,0.0,1.0,0.0,0.0,0.0,0.0,338.67181396484375,0,0,255,0,0,0,3,0,0,0
1,857281,9999.9951171875,849.6089477539062,6193.72607421875,0.731452226638794,0.3253483176231384,6.012117385864258,-0.019744873046875,-0.12015920877456665,34.65672302246094,-0.011719628237187862,0.0035014767199754715,-0.02787780947983265,-2.672043561935425,0.023172391578555107,0.01234973594546318,0.43469226360321045,0.3885783851146698,0.5338735580444336,0.47631072998046875,0.12786515057086945,0.12440423667430878,0.13746167719364166,0.14246006309986115,106.09259796142578,106.03812408447266,98.98417663574219,99.01119995117188,0.0,0.0,0.0,0.0,0.0,0.0,0.0,0.0,0.0,0.0,0.0,0.0,0.0067912922240793705,0.008342829532921314,0.007460859138518572,0.009983749128878117,0.12804536521434784,0.12468366324901581,0.13766400516033173,0.14280946552753448,-0.0008931662887334824,-0.004228947684168816,0.007756039500236511,0.003774169832468033,2616,4,884,2,12,-5550.9765625,185.2701416015625,-425.7595520019531,34.65693664550781,445050.59375,686.4879760742188,174.71365356445312,172.16098022460938,176.27920532226562,176.27920532226562,0.0,1.0,0.0,0.0,0.0,0.0,338.7071228027344,0,0,255,0,0,0,3,0,0,0
1,857328,9999.9951171875,849.6089477539062,6233.69189453125,0.5091092586517334,0.28026390075683594,5.952777862548828,-0.013248443603515625,-0.12110322713851929,34.86698913574219,0.0029866970144212246,0.001798085169866681,-0.019640054553747177,-2.6719565391540527,0.02301996946334839,0.011508997529745102,0.4045315086841583,0.3796120882034302,0.5069652199745178,0.4665292799472809,0.1449068933725357,0.13178372383117676,0.14091187715530396,0.1451680213212967,106.8629379272461,106.73743438720703,99.59976196289062,99.62674713134766,0.0,0.0,0.0,0.0,0.0,0.0,0.0,0.0,0.0,0.0,0.0,0.0,0.004118198994547129,0.006852909456938505,0.004760216921567917,0.006857037078589201,0.14496539533138275,0.13196177780628204,0.14099225401878357,0.14532987773418427,-0.0030749309808015823,-0.004877548664808273,0.005894675850868225,0.0030975453555583954,2616,4,884,2,12,-5551.53173828125,185.2375946044922,-426.8539123535156,34.86720275878906,447638.4375,686.0685424804688,174.69039916992188,172.14068603515625,176.27313232421875,176.27313232421875,0.0,1.0,0.0,0.0,0.0,0.0,338.742431640625,0,0,255,0,0,0,3,0,0,0
1,857359,9999.9951171875,849.6089477539062,6274.595703125,0.0059947967529296875,-0.018316000699996948,5.745530605316162,-0.009827613830566406,-0.12166094779968262,35.077449798583984,0.022051649168133736,0.0007714009843766689,-0.011078613810241222,-2.6719088554382324,0.023481670767068863,0.010988623835146427,0.37039270997047424,0.3659436106681824,0.48104479908943176,0.45647457242012024,0.1592683643102646,0.14396557211875916,0.14668530225753784,0.15103833377361298,107.60095977783203,107.472412109375,100.23419189453125,100.26667022705078,0.0,0.0,0.0,0.0,0.0,0.0,0.0,0.0,0.0,0.0,0.0,0.0,0.0020681566093117,0.005965676158666611,0.00296530919149518,0.004717165604233742,0.15928179025650024,0.14408913254737854,0.14671526849269867,0.15111197531223297,-0.005544459447264671,-0.0058662984520196915,0.004101645201444626,0.0024020224809646606,2616,4,884,2,12,-5552.09130859375,185.2045440673828,-427.9578857421875,35.07766342163086,450279.25,685.6255493164062,174.6673126220703,172.12008666992188,176.2665557861328,176.2665557861328,0.0,1.0,0.0,0.0,0.0,0.0,338.77783203125,0,0,255,0,0,0,3,0,0,0
1,857390,9999.9951171875,849.6089477539062,6286.06494140625,0.4334750175476074,-0.41445478796958923,5.797165393829346,-0.008170127868652344,-0.11614251136779785,35.26261901855469,0.04021279513835907,0.00020615424728021026,-0.0050798384472727776,-2.6718809604644775,0.02462761476635933,0.010713394731283188,0.3365105986595154,0.3485894501209259,0.4545462727546692,0.44419294595718384,0.11849311739206314,0.11237713694572449,0.11912158131599426,0.120551198720932,107.75151062011719,107.7053451538086,100.43208312988281,100.43971252441406,0.0,0.0,0.0,0.0,0.0,0.0,0.0,0.0,0.0,0.0,0.0,0.0,0.001283016288653016,0.005190863274037838,0.0019618142396211624,0.0034648538567125797,0.11850006878376007,0.11249695718288422,0.1191377341747284,0.12060097604990005,-0.007995419204235077,-0.007121661677956581,0.0022686347365379333,0.0015524476766586304,2616,4,884,2,12,-5552.65625,185.1702880859375,-429.0712890625,35.26280975341797,344646.375,523.7281494140625,174.64373779296875,172.09866333007812,176.25804138183594,176.25804138183594,-2.609250068664551,1.0,0.0,0.0,0.0,0.0,338.8133239746094,0,0,178,0,0,0,3,0,0,0
1,857437,9999.9951171875,849.6089477539062,6289.4609375,-0.7483246326446533,-0.9911458492279053,4.732636451721191,-0.007420539855957031,-0.10567355155944824,35.39777755737305,0.04655715823173523,-4.362832987681031e-05,-0.003285784274339676,-2.6718621253967285,0.026234149932861328,0.010596323758363724,0.34091439843177795,0.3351907432079315,0.4247414767742157,0.42807984352111816,0.07231123000383377,0.07651220262050629,0.09338877350091934,0.09190607070922852,107.7309799194336,107.77152252197266,100.51316833496094,100.49972534179688,0.0,0.0,0.0,0.0,0.0,0.0,0.0,0.0,0.0,0.0,0.0,0.0,0.0017044502310454845,0.004111352376639843,0.0015625145751982927,0.002931932918727398,0.07233131676912308,0.07662258297204971,0.09340184181928635,0.09195282310247421,-0.007676858454942703,-0.008090894669294357,0.00020690634846687317,0.0004378370940685272,2616,4,884,2,12,-5553.22509765625,185.13429260253906,-430.1927795410156,35.39793395996094,238007.625,361.41058349609375,174.61520385742188,172.072509765625,176.24119567871094,176.24119567871094,-5.2258501052856445,1.0,0.0,0.0,0.0,0.0,338.84893798828125,0,0,0,0,0,0,3,0,0,0
1,857468,9999.9951171875,849.6089477539062,6280.57421875,-0.3454749584197998,-0.9208927750587463,3.7402334213256836,-0.025053024291992188,-0.09243369102478027,35.48059844970703,0.03526963293552399,-0.006968433037400246,-0.010395319201052189,-2.671999216079712,0.027715101838111877,0.010292505845427513,0.37813934683799744,0.33621782064437866,0.3929268419742584,0.40918678045272827,0.03316938132047653,0.0381399504840374,0.055820759385824203,0.050772376358509064,107.6187973022461,107.69975280761719,100.34105682373047,100.3322525024414,0.0,0.0,0.0,0.0,0.0,0.0,0.0,0.0,0.0,0.0,0.0,0.0,-0.001977702369913459,-0.002064417116343975,0.0028323486912995577,0.003972537349909544,0.03322828933596611,0.03819578140974045,0.055892568081617355,0.050927549600601196,-0.004984084516763687,-0.008016599342226982,-0.001993846148252487,-0.0008690766990184784,2616,4,884,2,12,-5553.7919921875,185.09683227539062,-431.3115234375,35.48072814941406,131737.078125,200.3142547607422,174.5858154296875,172.0448760986328,176.21670532226562,176.21670532226562,-7.827749252319336,1.0,0.0,0.0,0.0,0.0,338.88433837890625,0,0,0,0,0,0,3,-2,0,0
1,857500,9999.9951171875,849.6089477539062,6263.841796875,-0.069771409034729,-0.7455407381057739,2.7057459354400635,-0.02811431884765625,-0.07678258419036865,35.51097106933594,0.013018153607845306,-0.012029622681438923,-0.02138143964111805,-2.6723217964172363,0.02855704165995121,0.009723120369017124,0.4396424889564514,0.3687487840652466,0.38414740562438965,0.392867773771286,0.006488759070634842,0.007436838001012802,0.013104495592415333,0.010839282535016537,107.46320343017578,107.53475189208984,99.99178314208984,100.03028106689453,0.0,0.0,0.0,0.0,0.0,0.0,0.0,0.0,0.0,0.0,0.0,0.0,-0.01893630623817444,-0.02151431515812874,-0.0004726756305899471,0.00041156419320032,0.02001718431711197,0.02276339754462242,0.013113017193973064,0.010847093537449837,-0.0005350783467292786,-0.0056633781641721725,-0.0026011578738689423,-0.0019979327917099,2616,4,884,2,12,-5554.35791015625,185.0584716796875,-432.4290466308594,35.51106643676758,26246.173828125,40.01142883300781,174.55276489257812,172.01202392578125,176.18487548828125,176.18487548828125,-10.422300338745117,1.0,0.0,0.0,0.0,0.0,338.9196472167969,0,0,0,0,0,0,3,-5,0,0
1,857531,9999.9951171875,849.6089477539062,6243.5048828125,-0.342894583940506,-0.24691841006278992,1.3059053421020508,-0.040210723876953125,-0.05889904499053955,35.48556900024414,-0.00938308797776699,-0.021984178572893143,-0.03328729420900345,-2.6729204654693604,0.02857660874724388,0.008714581839740276,0.5070220232009888,0.4343348443508148,0.4006693363189697,0.3855786621570587,-0.010847629979252815,-0.012440541759133339,-0.020170673727989197,-0.018661167472600937,107.20671081542969,107.31256866455078,99.57743072509766,99.69407653808594,0.0,0.0,0.0,0.0,0.0,0.0,0.0,0.0,0.0,0.0,0.0,0.0,-0.0377429835498333,-0.04085198789834976,-0.003519089426845312,-0.0029714538250118494,0.039270903915166855,0.04270423948764801,0.020475352182984352,0.01889626309275627,0.004339015111327171,-0.0009190216660499573,-0.0014582648873329163,-0.00250215083360672,2616,4,884,2,12,-5554.92333984375,185.02020263671875,-433.5469970703125,35.48564147949219,-78444.828125,-119.96917724609375,174.5213165283203,171.9805450439453,176.14752197265625,176.14752197265625,-13.016850471496582,1.0,0.0,0.0,0.0,0.0,338.9549560546875,0,0,0,0,0,0,3,-9,0,0
1,857562,9999.9951171875,849.6089477539062,6222.2451171875,-0.5578086972236633,0.2742069959640503,-0.12382760643959045,-0.0453643798828125,-0.045252084732055664,35.40925216674805,-0.017631221562623978,-0.0327540822327137,-0.040573954582214355,-2.6739132404327393,0.028035838156938553,0.007347472477704287,0.53802090883255,0.472775936126709,0.43315988779067993,0.4021807610988617,-0.021825667470693588,-0.022862551733851433,-0.03393286094069481,-0.032289039343595505,106.84537506103516,107.01318359375,99.19563293457031,99.3652114868164,0.0,0.0,0.0,0.0,0.0,0.0,0.0,0.0,0.0,0.0,0.0,0.0,-0.041016269475221634,-0.042496729642152786,-0.005859825294464827,-0.005559258628636599,0.04646174982190132,0.0482562780380249,0.034435104578733444,0.032764118164777756,0.00658140704035759,0.001861725002527237,0.0007892437279224396,-0.0013537146151065826,2616,4,884,2,12,-5555.48828125,184.98284912109375,-434.6669921875,35.409305572509766,-145534.1875,-223.31361389160156,174.4920196533203,171.95272827148438,176.11471557617188,176.11471557617188,-14.699999809265137,1.0,0.0,0.0,0.0,0.0,338.9903564453125,0,0,0,0,0,0,3,-10,0,0
1,857609,9999.9951171875,849.6089477539062,6206.89990234375,-0.8318945169448853,0.5991532206535339,-1.1578710079193115,-0.04102039337158203,-0.028573155403137207,35.32419204711914,-0.005528584122657776,-0.041252948343753815,-0.03967452049255371,-2.6752517223358154,0.02758769504725933,0.005867769476026297,0.5456132888793945,0.46911007165908813,0.4723794162273407,0.4480844736099243,-0.02439328096807003,-0.024649111554026604,-0.03214758262038231,-0.030666399747133255,106.53202056884766,106.75312805175781,98.94107818603516,99.15126037597656,0.0,0.0,0.0,0.0,0.0,0.0,0.0,0.0,0.0,0.0,0.0,0.0,-0.043824341148138046,-0.04349574074149132,-0.01000538282096386,-0.0096885459497571,0.05015580728650093,0.0499945804476738,0.033668603748083115,0.03216047212481499,0.007130622863769531,0.001596543937921524,0.003502223640680313,0.0018216408789157867,2616,4,884,2,12,-5556.0517578125,184.9467010498047,-435.7882080078125,35.32422637939453,-144769.109375,-222.6828155517578,174.46139526367188,171.92477416992188,176.08535766601562,176.08535766601562,-14.699999809265137,1.0,0.0,0.0,0.0,0.0,339.0258483886719,0,0,0,0,0,0,3,-11,0,0
1,857640,9999.9951171875,849.6089477539062,6190.03857421875,-0.888075590133667,0.5148695707321167,-1.714158058166504,-0.016424179077148438,-0.010345280170440674,35.24116516113281,0.017776096239686012,-0.042438432574272156,-0.03287651389837265,-2.676758289337158,0.02784482017159462,0.004550853744149208,0.5292682647705078,0.45540371537208557,0.48874273896217346,0.4723460078239441,-0.02665991708636284,-0.026637660339474678,-0.03377726674079895,-0.032555170357227325,106.24005126953125,106.47052001953125,98.66886138916016,98.88318634033203,0.0,0.0,0.0,0.0,0.0,0.0,0.0,0.0,0.0,0.0,0.0,0.0,-0.0189499594271183,-0.01783721335232258,-0.01245676539838314,-0.012072526849806309,0.03270859271287918,0.032058246433734894,0.03600103780627251,0.034721534699201584,0.005948256701231003,0.0006050541996955872,0.004634145647287369,0.003499917685985565,2616,4,884,2,12,-5556.611328125,184.91151428222656,-436.9042053222656,35.24116897583008,-143926.046875,-221.9857635498047,174.4276123046875,171.89376831054688,176.05630493164062,176.05630493164062,-14.699999809265137,1.0,0.0,0.0,0.0,0.0,339.0612487792969,0,0,0,0,0,0,3,-6,0,0
1,857671,9999.9951171875,849.6089477539062,6173.53271484375,-0.5023745894432068,0.07604996860027313,-1.923599123954773,0.024576187133789062,0.003597080707550049,35.159629821777344,0.03277115523815155,-0.034095849841833115,-0.024434704333543777,-2.6781046390533447,0.028803031891584396,0.0035433287266641855,0.4964461028575897,0.4394250512123108,0.48909568786621094,0.4591195583343506,-0.02733095921576023,-0.026477249339222908,-0.036789532750844955,-0.03692181780934334,106.00118255615234,106.19273376464844,98.4190902709961,98.58285522460938,0.0,0.0,0.0,0.0,0.0,0.0,0.0,0.0,0.0,0.0,0.0,0.0,0.011787962168455124,0.012396156787872314,-0.014558807946741581,-0.014379961416125298,0.029764700680971146,0.029235413298010826,0.039565496146678925,0.03962327539920807,0.0035739727318286896,-0.0005508065223693848,0.004658564925193787,0.0025849826633930206,2616,4,884,2,12,-5557.166015625,184.8763427734375,-438.0115661621094,35.15963363647461,-143094.28125,-221.2960662841797,174.39151000976562,171.86045837402344,176.02609252929688,176.02609252929688,-14.699999809265137,1.0,0.0,0.0,0.0,0.0,339.096435546875,0,0,0,0,0,0,3,0,0,0
1,857703,9999.9951171875,849.6089477539062,6157.13427734375,-1.6724308729171753,-0.35840415954589844,-2.1706204414367676,-0.05009174346923828,0.013051509857177734,35.076778411865234,0.032267265021800995,-0.06201028823852539,-0.03874659910798073,-2.679659366607666,0.02999592013657093,0.002364309038966894,0.4630360007286072,0.42618972063064575,0.474747896194458,0.43659713864326477,-0.030463693663477898,-0.025645103305578232,-0.042319245636463165,-0.037348486483097076,105.62663269042969,106.00142669677734,98.06758117675781,98.41209411621094,0.0,0.0,0.0,0.0,0.0,0.0,0.0,0.0,0.0,0.0,0.0,0.0,-0.25354239344596863,-0.24095019698143005,-0.0499098002910614,-0.047569639980793,0.2553659677505493,0.24231110513210297,0.06543628126382828,0.06047958508133888,0.001157158985733986,-0.0015082228928804398,0.003666061908006668,0.0010270141065120697,2616,4,884,2,12,-5557.71728515625,184.8402862548828,-439.1172180175781,35.07681655883789,-142272.84375,-220.61300659179688,174.36349487304688,171.83689880371094,175.9954833984375,175.9954833984375,-14.699999809265137,1.0,0.0,0.0,0.0,0.0,339.1316223144531,0,0,0,0,0,0,3,-115,0,0
1,857750,9999.9951171875,849.6089477539062,6141.47998046875,-3.7885351181030273,-0.5968087911605835,-2.335418939590454,-0.16253089904785156,0.015950679779052734,34.98987579345703,0.018863260746002197,-0.12091463059186935,-0.04131285101175308,-2.682894229888916,0.030905259773135185,0.0008323818328790367,0.4396705627441406,0.4280126392841339,0.4416724741458893,0.417732834815979,-0.03215944394469261,-0.02585557848215103,-0.04566321521997452,-0.03623344004154205,105.17453002929688,105.87572479248047,97.6698226928711,98.32862854003906,0.0,0.0,0.0,0.0,0.0,0.0,0.0,0.0,0.0,0.0,0.0,0.0,-0.3711956739425659,-0.3454473912715912,-0.06616470217704773,-0.06106099113821983,0.3725861608982086,0.34641364216804504,0.08039214462041855,0.07100216299295425,-0.0005330480635166168,-0.0013763569295406342,0.0013780966401100159,-0.00027791038155555725,2616,4,884,2,12,-5558.259765625,184.80328369140625,-440.22003173828125,34.99026107788086,-141488.203125,-219.95867919921875,174.36154174804688,171.84437561035156,175.96481323242188,175.96481323242188,-14.699999809265137,1.0,0.0,0.0,0.0,0.0,339.1667175292969,0,0,0,0,0,0,3,-127,0,0
1,857781,9999.9951171875,849.6089477539062,6126.02294921875,-5.725701808929443,-0.542769730091095,-2.445028781890869,-0.25922584533691406,0.014557480812072754,34.8980712890625,0.0006812885403633118,-0.1946275532245636,-0.04269667714834213,-2.6884946823120117,0.031225450336933136,-0.0008103643194772303,0.431776225566864,0.4491495192050934,0.40582913160324097,0.40504226088523865,-0.03490498289465904,-0.026530306786298752,-0.043791238218545914,-0.03431151434779167,104.65324401855469,105.7696533203125,97.27191162109375,98.27759552001953,0.0,0.0,0.0,0.0,0.0,0.0,0.0,0.0,0.0,0.0,0.0,0.0,-0.4865786135196686,-0.44206503033638,-0.08977539837360382,-0.08146528154611588,0.48782896995544434,0.4428604245185852,0.09988640248775482,0.0883961096405983,-0.0011041071265935898,0.00015264004468917847,-0.0011013410985469818,-0.0011557713150978088,2616,4,884,2,12,-5558.791015625,184.76576232910156,-441.3208923339844,34.8990364074707,-140719.734375,-219.31610107421875,174.37725830078125,171.8731689453125,175.93539428710938,175.93539428710938,-14.699999809265137,1.0,0.0,0.0,0.0,0.0,339.20172119140625,0,0,0,0,0,0,3,-127,0,0
1,857812,9999.9951171875,849.6089477539062,6109.423828125,-7.080256938934326,-0.22291299700737,-2.3349311351776123,-0.32712364196777344,0.0137481689453125,34.80066680908203,-0.01566370017826557,-0.2710191011428833,-0.0464472621679306,-2.6967735290527344,0.030910838395357132,-0.0026394864544272423,0.44110289216041565,0.4784981906414032,0.3779417872428894,0.40418529510498047,-0.03899100422859192,-0.02781524695456028,-0.0400971882045269,-0.03155842423439026,104.08191680908203,105.63591766357422,96.85930633544922,98.2225341796875,0.0,0.0,0.0,0.0,0.0,0.0,0.0,0.0,0.0,0.0,0.0,0.0,-0.6115515828132629,-0.5428358316421509,-0.1211761087179184,-0.10809104144573212,0.6127933263778687,0.5435479879379272,0.12763790786266327,0.11260376125574112,-0.0004294365644454956,0.0022756606340408325,-0.003030426800251007,-0.0012150518596172333,2616,4,884,2,12,-5559.31201171875,184.7282257080078,-442.4268493652344,34.802207946777344,-139904.71875,-218.63267517089844,174.41061401367188,171.92355346679688,175.9095916748047,175.9095916748047,-14.699999809265137,1.0,0.0,0.0,0.0,0.0,339.23681640625,0,0,0,0,0,0,3,-127,0,0
1,857843,9999.9951171875,849.6089477539062,6090.5322265625,-9.219930648803711,0.17780165374279022,-2.6088337898254395,-0.3571453094482422,0.01343989372253418,34.69871139526367,-0.026392988860607147,-0.3473462164402008,-0.0499643012881279,-2.707731246948242,0.030105628073215485,-0.004648354835808277,0.4594797194004059,0.5053157806396484,0.36290910840034485,0.41923680901527405,-0.04265875369310379,-0.03040986880660057,-0.0394282266497612,-0.030251378193497658,103.48876190185547,105.46245574951172,96.39918518066406,98.13383483886719,0.0,0.0,0.0,0.0,0.0,0.0,0.0,0.0,0.0,0.0,0.0,0.0,-0.7289695143699646,-0.6414477229118347,-0.16060484945774078,-0.1402217596769333,0.7302166223526001,0.6421681642532349,0.16537383198738098,0.1434478610754013,0.0008999053388834,0.004215588793158531,-0.004070300608873367,-0.00017387419939041138,2616,4,884,2,12,-5559.8193359375,184.6915283203125,-443.535400390625,34.70055389404297,-138977.375,-217.8526611328125,174.4620361328125,171.99586486816406,175.88916015625,175.88916015625,-14.699999809265137,1.0,0.0,0.0,0.0,0.0,339.27191162109375,0,0,0,0,0,0,3,-127,0,0
1,857890,9999.9951171875,849.6089477539062,6070.1181640625,-10.626215934753418,0.5497913956642151,-2.6150405406951904,-0.3422279357910156,0.013368070125579834,34.592411041259766,-0.0314059853553772,-0.4186593294143677,-0.05852782353758812,-2.721385955810547,0.028974905610084534,-0.0069848112761974335,0.47863465547561646,0.521719217300415,0.3609241247177124,0.44292107224464417,-0.0462893582880497,-0.03395858779549599,-0.040055662393569946,-0.028811903670430183,102.88243103027344,105.24696350097656,95.92147827148438,98.0155258178711,0.0,0.0,0.0,0.0,0.0,0.0,0.0,0.0,0.0,0.0,0.0,0.0,-0.8361784219741821,-0.7343472838401794,-0.2072320580482483,-0.17645877599716187,0.8374587297439575,0.7351320385932922,0.21106772124767303,0.1787954866886139,0.0022855326533317566,0.005402177572250366,-0.004207611083984375,0.0014644674956798553,2616,4,884,2,12,-5560.31396484375,184.65599060058594,-444.6532897949219,34.59410858154297,-137982.328125,-217.0128173828125,174.53268432617188,172.08511352539062,175.87435913085938,175.87435913085938,-14.699999809265137,1.0,0.0,0.0,0.0,0.0,339.3072204589844,0,0,0,0,0,0,3,-127,0,0
1,857921,9999.9951171875,849.6089477539062,6046.43896484375,-12.091081619262695,0.6639296412467957,-2.7459797859191895,-0.2744913101196289,0.0032335519790649414,34.48584747314453,-0.02379485033452511,-0.4701538383960724,-0.047008439898490906,-2.737220287322998,0.027829457074403763,-0.009314771741628647,0.47045600414276123,0.5415652394294739,0.3645755648612976,0.46660134196281433,-0.0672258660197258,-0.03853819519281387,-0.03954995051026344,-0.029019229114055634,102.12464141845703,104.92003631591797,95.483154296875,97.82305145263672,0.0,0.0,0.0,0.0,0.0,0.0,0.0,0.0,0.0,0.0,0.0,0.0,-1.009853482246399,-0.8563635945320129,-0.2636030316352844,-0.22386610507965088,1.012088656425476,0.8572303056716919,0.26655346155166626,0.22573912143707275,0.0016939043998718262,0.0068377964198589325,-0.003955025225877762,0.0031025297939777374,2616,4,884,2,12,-5560.79150390625,184.6218719482422,-445.7743835449219,34.486942291259766,-136837.78125,-216.04306030273438,174.61611938476562,172.18882751464844,175.86587524414062,175.86587524414062,-14.699999809265137,1.0,0.0,0.0,0.0,0.0,339.342529296875,0,0,0,0,0,0,3,-127,0,0
1,857953,9999.9951171875,849.6089477539062,6022.11669921875,-12.77143383026123,0.407927542924881,-2.7074248790740967,-0.16510009765625,-0.00575709342956543,34.381507873535156,0.00734147522598505,-0.49165406823158264,-0.05002373829483986,-2.7542483806610107,0.027355555444955826,-0.0114835724234581,0.44678449630737305,0.5439265370368958,0.3886028826236725,0.4817657768726349,-0.10145176947116852,-0.044714346528053284,-0.03653397038578987,-0.031139953061938286,101.39187622070312,104.53917694091797,95.12967681884766,97.52832794189453,0.0,0.0,0.0,0.0,0.0,0.0,0.0,0.0,0.0,0.0,0.0,0.0,-1.1053223609924316,-0.919558048248291,-0.2999168932437897,-0.2622087895870209,1.1099684238433838,0.9206445813179016,0.3021338880062103,0.2640514075756073,-1.8440186977386475e-05,0.007008608430624008,-0.0022929534316062927,0.004151519387960434,2616,4,884,2,12,-5561.2509765625,184.58853149414062,-446.8953857421875,34.38190841674805,-135646.21875,-215.0291748046875,174.70571899414062,172.3032989501953,175.86732482910156,175.86732482910156,-14.699999809265137,1.0,0.0,0.0,0.0,0.0,339.3777160644531,0,0,0,0,0,0,3,-127,0,0
1,858000,9999.9951171875,849.6089477539062,5998.23046875,-13.148216247558594,0.054930783808231354,-2.666713237762451,-0.04419994354248047,0.01292198896408081,34.277523040771484,0.04236537963151932,-0.5012373328208923,-0.03814660757780075,-2.7717034816741943,0.028089191764593124,-0.013599037192761898,0.4198126196861267,0.52167809009552,0.39341476559638977,0.5006650686264038,-0.1154966950416565,-0.04569762200117111,-0.04427126795053482,-0.032045356929302216,100.89199829101562,104.1741943359375,94.70198822021484,97.2140121459961,0.0,0.0,0.0,0.0,0.0,0.0,0.0,0.0,0.0,0.0,0.0,0.0,-1.1420950889587402,-0.9502344727516174,-0.3456592261791229,-0.29502591490745544,1.1479202508926392,0.9513326287269592,0.34848275780677795,0.2967611849308014,-0.001969529315829277,0.005399201065301895,-0.0019600950181484222,0.005458865314722061,2616,4,884,2,12,-5561.69189453125,184.5553436279297,-448.01605224609375,34.27755355834961,-134482.171875,-214.03440856933594,174.79296875,172.42088317871094,175.876953125,175.876953125,-14.699999809265137,1.0,0.0,0.0,0.0,0.0,339.4128112792969,0,0,0,0,0,0,3,-127,0,0
1,858031,9999.9951171875,849.6089477539062,5974.88818359375,-13.042258262634277,-0.5051904916763306,-2.5236148834228516,0.09767436981201172,0.02512228488922119,34.17094421386719,0.05037496238946915,-0.5205897688865662,-0.03222029656171799,-2.7897086143493652,0.029555028304457664,-0.015327042900025845,0.39966070652008057,0.49190208315849304,0.38198378682136536,0.5035682320594788,-0.1022079586982727,-0.04554181918501854,-0.05814337730407715,-0.040557861328125,100.5809097290039,103.86125183105469,94.22225189208984,96.86669158935547,0.0,0.0,0.0,0.0,0.0,0.0,0.0,0.0,0.0,0.0,0.0,0.0,-1.1651233434677124,-0.9747598767280579,-0.4023898243904114,-0.3486652374267578,1.1695977449417114,0.975823163986206,0.40656885504722595,0.35101622343063354,-0.003427276387810707,0.003245268017053604,-0.002750825136899948,0.005659688264131546,2616,4,884,2,12,-5562.11767578125,184.5212860107422,-449.1424560546875,34.17108917236328,-133350.25,-213.06300354003906,174.88677978515625,172.54344177246094,175.88516235351562,175.88516235351562,-14.699999809265137,1.0,0.0,0.0,0.0,0.0,339.447998046875,0,0,0,0,0,0,3,-127,0,0
1,858062,9999.9951171875,849.6089477539062,5953.5927734375,-13.528797149658203,-0.94850754737854,-2.591306209564209,0.24335479736328125,0.028795301914215088,34.059207916259766,0.03616207093000412,-0.5506896376609802,-0.032820090651512146,-2.808516025543213,0.030777152627706528,-0.0170750692486763,0.3686477541923523,0.4742123782634735,0.36445584893226624,0.4887169897556305,-0.08681287616491318,-0.04336033761501312,-0.07126443833112717,-0.042902205139398575,100.26382446289062,103.59906768798828,93.73329162597656,96.60575866699219,0.0,0.0,0.0,0.0,0.0,0.0,0.0,0.0,0.0,0.0,0.0,0.0,-1.1779053211212158,-0.9905770421028137,-0.4607691466808319,-0.3929802179336548,1.1811001300811768,0.9915255904197693,0.4662475883960724,0.39531514048576355,-0.005670687183737755,0.001965634524822235,-0.003963306546211243,0.0046323686838150024,2616,4,884,2,12,-5562.5234375,184.4860382080078,-450.26470947265625,34.060089111328125,-132316.421875,-212.17214965820312,174.98971557617188,172.67501831054688,175.89500427246094,175.89500427246094,-14.699999809265137,1.0,0.0,0.0,0.0,0.0,339.4830017089844,0,0,0,0,0,0,3,-127,0,0
1,858093,9999.9951171875,849.6089477539062,5933.4423828125,-14.21278190612793,-0.9974961876869202,-2.6114487648010254,0.3846759796142578,0.026888012886047363,33.941383361816406,0.015503248199820518,-0.5817955732345581,-0.030416548252105713,-2.828404664993286,0.03130342811346054,-0.01879238151013851,0.34816569089889526,0.47289857268333435,0.3487969636917114,0.45829784870147705,-0.08260658383369446,-0.04087412729859352,-0.07236705720424652,-0.042636990547180176,99.84581756591797,103.33236694335938,93.33294677734375,96.35943603515625,0.0,0.0,0.0,0.0,0.0,0.0,0.0,0.0,0.0,0.0,0.0,0.0,-1.2006237506866455,-1.0042946338653564,-0.5118779540061951,-0.43311700224876404,1.2034622430801392,1.0051261186599731,0.5169681310653687,0.43521058559417725,-0.007152315229177475,0.001870596781373024,-0.005046498030424118,0.0025281421840190887,2616,4,884,2,12,-5562.9111328125,184.4497833251953,-451.38916015625,33.943572998046875,-131342.015625,-211.32936096191406,175.11062622070312,172.81719970703125,175.9102783203125,175.9102783203125,-14.699999809265137,1.0,0.0,0.0,0.0,0.0,339.51800537109375,0,0,0,0,0,0,3,-127,0,0
1,858125,9999.9951171875,849.6089477539062,5916.95703125,-15.316227912902832,-0.6932297348976135,-2.6790151596069336,0.5112323760986328,0.027581393718719482,33.81735610961914,-0.0020064134150743484,-0.6075835227966309,-0.033494528383016586,-2.8493402004241943,0.031089523807168007,-0.020590277388691902,0.3367125988006592,0.4845617413520813,0.32302311062812805,0.43568485975265503,-0.08279617875814438,-0.03557209298014641,-0.06416910141706467,-0.04130436107516289,99.53785705566406,103.18246459960938,93.0136947631836,96.10252380371094,0.0,0.0,0.0,0.0,0.0,0.0,0.0,0.0,0.0,0.0,0.0,0.0,-1.0871920585632324,-0.9022013545036316,-0.5282659530639648,-0.4502866268157959,1.090340256690979,0.902902364730835,0.5321490168571472,0.4521770477294922,-0.00798080675303936,0.0027142856270074844,-0.0068293847143650055,0.0009639076888561249,2616,4,884,2,12,-5563.27978515625,184.4132843017578,-452.5190734863281,33.821231842041016,-130539.734375,-210.63311767578125,175.24951171875,172.96807861328125,175.93443298339844,175.93443298339844,-14.699999809265137,1.0,0.0,0.0,0.0,0.0,339.5531005859375,0,0,0,0,0,0,3,-22,0,0
1,858171,9999.9951171875,849.6089477539062,5916.5087890625,-15.335753440856934,-0.26624438166618347,-2.510922431945801,0.7238149642944336,0.029618263244628906,33.70026397705078,-0.01613088883459568,-0.5982150435447693,-0.011856946162879467,-2.8708372116088867,0.030293818563222885,-0.022205417975783348,0.38274192810058594,0.5087140202522278,0.2998412549495697,0.42596426606178284,-0.030582403764128685,-0.010451212525367737,-0.059054020792245865,-0.03854815289378166,100.15119934082031,103.35778045654297,92.8554458618164,95.87584686279297,0.0,0.0,0.0,0.0,0.0,0.0,0.0,0.0,0.0,0.0,0.0,0.0,0.02842785231769085,0.01786082796752453,-0.4185446500778198,-0.3640557527542114,0.041754353791475296,0.020693888887763023,0.422690212726593,0.36609089374542236,-0.0046511441469192505,0.004461407661437988,-0.008432973176240921,0.0002914927899837494,2616,4,884,2,12,-5563.6279296875,184.37745666503906,-453.6510314941406,33.708045959472656,-130495.4609375,-210.59463500976562,175.32659912109375,173.08294677734375,175.96282958984375,175.96282958984375,-14.699999809265137,1.0,0.0,0.0,0.0,0.0,339.58819580078125,0,0,0,0,0,0,3,0,0,0
1,858203,9999.9951171875,849.6089477539062,5902.45947265625,-12.92329216003418,0.22461196780204773,-2.2069292068481445,1.032999038696289,0.031231045722961426,33.603546142578125,-0.030630430206656456,-0.5212433338165283,0.00471822964027524,-2.890475273132324,0.028995806351304054,-0.022752119228243828,0.4259730577468872,0.5635764002799988,0.288533478975296,0.4230242967605591,-0.024084869772195816,-0.01774265617132187,-0.048636093735694885,-0.036533698439598083,100.07930755615234,102.94369506835938,92.8465805053711,95.43781280517578,0.0,0.0,0.0,0.0,0.0,0.0,0.0,0.0,0.0,0.0,0.0,0.0,0.04032287374138832,0.03430594503879547,-0.45847076177597046,-0.4073502719402313,0.046968236565589905,0.038622528314590454,0.46104326844215393,0.40898528695106506,-0.001523895189166069,0.008430037647485733,-0.009215179830789566,8.812174201011658e-05,2616,4,884,2,12,-5563.9638671875,184.34263610839844,-454.79022216796875,33.61943054199219,-129846.703125,-210.0299530029297,175.29244995117188,173.05526733398438,175.98519897460938,175.98519897460938,-14.699999809265137,1.0,0.0,0.0,0.0,0.0,339.6235046386719,0,0,0,0,0,0,3,14,0,0
